# 
# Header Description:
# 
# Version: v1.0.0.0 Platform: 8.0.0 Manufacturer: samsung Model: SAMSUNG-SM-G891A
# 
# Raw,ElapsedRealtimeMillis,TimeNanos,LeapSecond,TimeUncertaintyNanos,FullBiasNanos,BiasNanos,BiasUncertaintyNanos,DriftNanosPerSecond,DriftUncertaintyNanosPerSecond,HardwareClockDiscontinuityCount,Svid,TimeOffsetNanos,State,ReceivedSvTimeNanos,ReceivedSvTimeUncertaintyNanos,Cn0DbHz,PseudorangeRateMetersPerSecond,PseudorangeRateUncertaintyMetersPerSecond,AccumulatedDeltaRangeState,AccumulatedDeltaRangeMeters,AccumulatedDeltaRangeUncertaintyMeters,CarrierFrequencyHz,CarrierCycles,CarrierPhase,CarrierPhaseUncertainty,MultipathIndicator,SnrInDb,ConstellationType,AgcDb,CarrierFrequencyHz
# 
# Fix,Provider,Latitude,Longitude,Altitude,Speed,Accuracy,(UTC)TimeInMs
# 
# Nav,Svid,Type,Status,MessageId,Sub-messageId,Data(Bytes)
# 
Fix,gps,-41.242737,174.786981,201.000000,0.000000,3.216000,1604456682000
Fix,gps,-41.242737,174.786981,201.000000,0.000000,3.216000,1604456683000
Fix,gps,-41.242737,174.786981,201.000000,0.000000,3.216000,1604456684000
Fix,gps,-41.242737,174.786981,201.000000,0.000000,3.216000,1604456685000
Fix,gps,-41.242737,174.786981,201.000000,0.000000,3.216000,1604456686000
Fix,gps,-41.242737,174.786981,201.000000,0.000000,3.216000,1604456687000
Fix,gps,-41.242737,174.786981,201.000000,0.000000,3.216000,1604456688000
Fix,gps,-41.242737,174.786981,201.000000,0.000000,3.216000,1604456689000
Fix,gps,-41.242737,174.786981,201.000000,0.000000,3.216000,1604456690000
Fix,gps,-41.242738,174.786981,202.000000,0.000000,3.216000,1604456691000
Fix,gps,-41.242738,174.786981,202.000000,0.000000,3.216000,1604456692000
Fix,gps,-41.242738,174.786981,202.000000,0.000000,3.216000,1604456693000
Fix,gps,-41.242738,174.786981,202.000000,0.000000,3.216000,1604456694000
Fix,gps,-41.242740,174.786980,202.000000,0.000000,3.216000,1604456695000
Fix,gps,-41.242741,174.786980,202.000000,0.000000,3.216000,1604456696000
Fix,gps,-41.242741,174.786980,202.000000,0.000000,3.216000,1604456697000
Fix,gps,-41.242741,174.786980,202.000000,0.000000,3.216000,1604456698000
Fix,gps,-41.242741,174.786980,202.000000,0.000000,3.216000,1604456699000
Fix,gps,-41.242741,174.786980,202.000000,0.000000,3.216000,1604456700000
Fix,gps,-41.242742,174.786980,202.000000,0.000000,3.216000,1604456701000
Fix,gps,-41.242756,174.786991,204.000000,1.630000,3.216000,1604456702000
Fix,gps,-41.242776,174.786999,203.000000,1.770000,3.216000,1604456703000
Fix,gps,-41.242798,174.786998,203.000000,2.420000,3.216000,1604456704000
Fix,gps,-41.242832,174.786959,201.000000,2.750000,3.216000,1604456705000
Fix,gps,-41.242866,174.786958,200.000000,3.590000,3.216000,1604456706000
Fix,gps,-41.242906,174.786947,197.000000,4.370000,3.216000,1604456707000
Fix,gps,-41.242949,174.786940,196.000000,4.000000,3.216000,1604456708000
Fix,gps,-41.242987,174.786934,196.000000,3.810000,3.216000,1604456709000
Fix,gps,-41.243026,174.786937,197.000000,3.970000,3.216000,1604456710000
Fix,gps,-41.243063,174.786948,197.000000,3.880000,3.216000,1604456711000
Fix,gps,-41.243101,174.786963,196.000000,4.020000,3.216000,1604456712000
Fix,gps,-41.243137,174.786985,195.000000,4.140000,3.216000,1604456713000
Fix,gps,-41.243170,174.787015,194.000000,4.340000,3.216000,1604456714000
Fix,gps,-41.243200,174.787048,194.000000,3.990000,3.216000,1604456715000
Fix,gps,-41.243224,174.787075,194.000000,2.880000,3.216000,1604456716000
Fix,gps,-41.243243,174.787097,194.000000,2.650000,3.216000,1604456717000
Fix,gps,-41.243263,174.787120,193.000000,3.120000,3.216000,1604456718000
Fix,gps,-41.243285,174.787149,194.000000,3.410000,3.216000,1604456719000
Fix,gps,-41.243304,174.787184,193.000000,3.660000,3.216000,1604456720000
Fix,gps,-41.243320,174.787226,192.000000,3.830000,3.216000,1604456721000
Fix,gps,-41.243334,174.787273,191.000000,3.960000,3.216000,1604456722000
Fix,gps,-41.243348,174.787323,191.000000,4.310000,3.216000,1604456723000
Fix,gps,-41.243364,174.787377,190.000000,4.540000,3.216000,1604456724000
Fix,gps,-41.243383,174.787431,190.000000,4.810000,3.216000,1604456725000
Fix,gps,-41.243403,174.787481,189.000000,4.230000,3.216000,1604456726000
Fix,gps,-41.243421,174.787530,188.000000,4.690000,3.216000,1604456727000
Fix,gps,-41.243440,174.787596,188.000000,5.210000,3.216000,1604456728000
Fix,gps,-41.243468,174.787643,188.000000,4.970000,3.216000,1604456729000
Fix,gps,-41.243494,174.787701,187.000000,5.370000,3.216000,1604456730000
Fix,gps,-41.243516,174.787754,187.000000,5.470000,3.216000,1604456731000
Fix,gps,-41.243546,174.787809,186.000000,5.460000,3.216000,1604456732000
Fix,gps,-41.243577,174.787873,185.000000,6.170000,3.216000,1604456733000
Fix,gps,-41.243600,174.787942,185.000000,6.330000,3.216000,1604456734000
Fix,gps,-41.243630,174.788009,184.000000,6.490000,3.216000,1604456735000
Fix,gps,-41.243661,174.788066,183.000000,6.280000,3.216000,1604456736000
Fix,gps,-41.243682,174.788143,182.000000,6.650000,3.216000,1604456737000
Fix,gps,-41.243711,174.788215,181.000000,7.080000,3.216000,1604456738000
Fix,gps,-41.243740,174.788281,180.000000,6.440000,3.216000,1604456739000
Fix,gps,-41.243767,174.788339,180.000000,5.540000,3.216000,1604456740000
Fix,gps,-41.243783,174.788387,179.000000,5.100000,3.216000,1604456741000
Fix,gps,-41.243805,174.788432,179.000000,4.430000,3.216000,1604456742000
Fix,gps,-41.243813,174.788496,180.000000,4.870000,3.216000,1604456743000
Fix,gps,-41.243830,174.788544,181.000000,4.600000,3.216000,1604456744000
Fix,gps,-41.243833,174.788566,180.000000,2.610000,3.216000,1604456745000
Fix,gps,-41.243850,174.788587,179.000000,2.280000,3.216000,1604456746000
Fix,gps,-41.243867,174.788624,179.000000,3.010000,3.216000,1604456747000
Fix,gps,-41.243897,174.788665,180.000000,4.070000,3.216000,1604456748000
Fix,gps,-41.243918,174.788710,179.000000,4.520000,3.216000,1604456749000
Fix,gps,-41.243941,174.788763,178.000000,4.940000,3.216000,1604456750000
Fix,gps,-41.243972,174.788816,178.000000,5.210000,3.216000,1604456751000
Fix,gps,-41.244001,174.788885,178.000000,6.140000,3.216000,1604456752000
Fix,gps,-41.244029,174.788942,177.000000,6.060000,3.216000,1604456753000
Fix,gps,-41.244064,174.789002,177.000000,6.390000,3.216000,1604456754000
Fix,gps,-41.244085,174.789071,176.000000,6.180000,3.216000,1604456755000
Fix,gps,-41.244115,174.789134,175.000000,6.470000,3.216000,1604456756000
Fix,gps,-41.244160,174.789197,175.000000,7.100000,3.216000,1604456757000
Fix,gps,-41.244203,174.789261,175.000000,7.240000,3.216000,1604456758000
Fix,gps,-41.244252,174.789332,174.000000,7.680000,3.216000,1604456759000
Fix,gps,-41.244299,174.789411,175.000000,8.140000,3.216000,1604456760000
Fix,gps,-41.244346,174.789480,174.000000,7.900000,3.216000,1604456761000
Fix,gps,-41.244381,174.789568,174.000000,8.130000,3.216000,1604456762000
Fix,gps,-41.244428,174.789658,174.000000,8.230000,3.216000,1604456763000
Fix,gps,-41.244446,174.789749,173.000000,8.140000,3.216000,1604456764000
Fix,gps,-41.244481,174.789836,173.000000,7.720000,3.216000,1604456765000
Fix,gps,-41.244510,174.789920,173.000000,7.470000,3.216000,1604456766000
Fix,gps,-41.244536,174.790001,173.000000,7.340000,3.216000,1604456767000
Fix,gps,-41.244558,174.790081,172.000000,7.250000,3.216000,1604456768000
Fix,gps,-41.244587,174.790163,172.000000,7.010000,3.216000,1604456769000
Fix,gps,-41.244609,174.790243,171.000000,7.220000,3.216000,1604456770000
Fix,gps,-41.244635,174.790317,171.000000,6.730000,3.216000,1604456771000
Fix,gps,-41.244657,174.790387,171.000000,6.380000,3.216000,1604456772000
Fix,gps,-41.244674,174.790460,172.000000,6.170000,3.216000,1604456773000
Fix,gps,-41.244693,174.790524,172.000000,5.700000,3.216000,1604456774000
Fix,gps,-41.244712,174.790580,173.000000,4.890000,3.216000,1604456775000
Fix,gps,-41.244719,174.790613,173.000000,3.340000,3.216000,1604456776000
Fix,gps,-41.244725,174.790640,173.000000,2.350000,3.216000,1604456777000
Fix,gps,-41.244731,174.790652,173.000000,1.200000,3.216000,1604456778000
Fix,gps,-41.244730,174.790659,173.000000,0.690000,3.216000,1604456779000
Fix,gps,-41.244735,174.790654,173.000000,0.500000,3.216000,1604456780000
Fix,gps,-41.244743,174.790642,173.000000,0.200000,3.216000,1604456781000
Fix,gps,-41.244745,174.790640,173.000000,0.000000,3.216000,1604456782000
Fix,gps,-41.244746,174.790640,173.000000,0.000000,3.216000,1604456783000
Fix,gps,-41.244750,174.790637,173.000000,0.000000,3.216000,1604456784000
Fix,gps,-41.244753,174.790631,173.000000,0.000000,3.216000,1604456785000
Fix,gps,-41.244757,174.790622,173.000000,0.000000,3.216000,1604456786000
Fix,gps,-41.244759,174.790617,173.000000,0.000000,3.216000,1604456787000
Fix,gps,-41.244759,174.790615,173.000000,0.000000,3.216000,1604456788000
Fix,gps,-41.244764,174.790623,174.000000,0.590000,3.216000,1604456789000
Fix,gps,-41.244776,174.790645,174.000000,2.140000,3.216000,1604456790000
Fix,gps,-41.244798,174.790667,174.000000,3.010000,3.216000,1604456791000
Fix,gps,-41.244832,174.790674,173.000000,4.130000,3.216000,1604456792000
Fix,gps,-41.244875,174.790649,172.000000,5.110000,3.216000,1604456793000
Fix,gps,-41.244920,174.790618,172.000000,5.890000,3.216000,1604456794000
Fix,gps,-41.244975,174.790579,172.000000,6.720000,3.216000,1604456795000
Fix,gps,-41.245033,174.790536,171.000000,7.260000,3.216000,1604456796000
Fix,gps,-41.245095,174.790487,171.000000,7.950000,3.216000,1604456797000
Fix,gps,-41.245149,174.790446,169.000000,7.590000,3.216000,1604456798000
Fix,gps,-41.245216,174.790389,169.000000,8.400000,3.216000,1604456799000
Fix,gps,-41.245280,174.790334,169.000000,8.350000,3.216000,1604456800000
Fix,gps,-41.245337,174.790275,168.000000,8.350000,3.216000,1604456801000
Fix,gps,-41.245400,174.790215,167.000000,8.700000,3.216000,1604456802000
Fix,gps,-41.245463,174.790156,166.000000,8.680000,3.216000,1604456803000
Fix,gps,-41.245529,174.790107,165.000000,8.680000,3.216000,1604456804000
Fix,gps,-41.245584,174.790065,164.000000,7.490000,3.216000,1604456805000
Fix,gps,-41.245631,174.790026,163.000000,6.270000,3.216000,1604456806000
Fix,gps,-41.245675,174.789990,162.000000,5.770000,3.216000,1604456807000
Fix,gps,-41.245723,174.789955,161.000000,6.000000,3.216000,1604456808000
Fix,gps,-41.245765,174.789931,161.000000,5.570000,3.216000,1604456809000
Fix,gps,-41.245802,174.789894,160.000000,5.240000,3.216000,1604456810000
Fix,gps,-41.245846,174.789869,159.000000,5.730000,3.216000,1604456811000
Fix,gps,-41.245898,174.789839,159.000000,6.140000,3.216000,1604456812000
Fix,gps,-41.245937,174.789794,158.000000,5.850000,3.216000,1604456813000
Fix,gps,-41.245949,174.789732,158.000000,5.240000,3.216000,1604456814000
Fix,gps,-41.245973,174.789657,159.000000,6.310000,3.216000,1604456815000
Fix,gps,-41.245991,174.789574,160.000000,6.940000,3.216000,1604456816000
Fix,gps,-41.246017,174.789503,159.000000,7.000000,3.216000,1604456817000
Fix,gps,-41.246049,174.789423,160.000000,7.530000,3.216000,1604456818000
Fix,gps,-41.246079,174.789335,159.000000,8.020000,3.216000,1604456819000
Fix,gps,-41.246107,174.789241,159.000000,8.110000,3.216000,1604456820000
Fix,gps,-41.246149,174.789150,158.000000,8.480000,3.216000,1604456821000
Fix,gps,-41.246179,174.789061,157.000000,8.380000,3.216000,1604456822000
Fix,gps,-41.246219,174.788972,157.000000,8.720000,3.216000,1604456823000
Fix,gps,-41.246256,174.788875,158.000000,8.700000,3.216000,1604456824000
Fix,gps,-41.246296,174.788782,157.000000,9.040000,3.216000,1604456825000
Fix,gps,-41.246341,174.788694,157.000000,9.380000,3.216000,1604456826000
Fix,gps,-41.246387,174.788606,157.000000,9.320000,3.216000,1604456827000
Fix,gps,-41.246439,174.788519,156.000000,9.250000,3.216000,1604456828000
Fix,gps,-41.246494,174.788436,155.000000,9.180000,3.216000,1604456829000
Fix,gps,-41.246551,174.788367,154.000000,8.850000,3.216000,1604456830000
Fix,gps,-41.246601,174.788295,154.000000,8.430000,3.216000,1604456831000
Fix,gps,-41.246659,174.788226,154.000000,8.270000,3.216000,1604456832000
Fix,gps,-41.246721,174.788167,154.000000,8.160000,3.216000,1604456833000
Fix,gps,-41.246779,174.788103,154.000000,8.340000,3.216000,1604456834000
Fix,gps,-41.246843,174.788043,154.000000,8.460000,3.216000,1604456835000
Fix,gps,-41.246895,174.787987,154.000000,7.760000,3.216000,1604456836000
Fix,gps,-41.246953,174.787935,153.000000,7.890000,3.216000,1604456837000
Fix,gps,-41.246997,174.787875,154.000000,7.450000,3.216000,1604456838000
Fix,gps,-41.247052,174.787825,153.000000,7.440000,3.216000,1604456839000
Fix,gps,-41.247099,174.787768,153.000000,7.400000,3.216000,1604456840000
Fix,gps,-41.247152,174.787710,154.000000,7.850000,3.216000,1604456841000
Fix,gps,-41.247201,174.787647,154.000000,7.540000,3.216000,1604456842000
Fix,gps,-41.247253,174.787595,154.000000,7.430000,3.216000,1604456843000
Fix,gps,-41.247302,174.787540,154.000000,6.910000,3.216000,1604456844000
Fix,gps,-41.247346,174.787486,154.000000,6.720000,3.216000,1604456845000
Fix,gps,-41.247396,174.787440,153.000000,6.580000,3.216000,1604456846000
Fix,gps,-41.247438,174.787385,153.000000,6.620000,3.216000,1604456847000
Fix,gps,-41.247481,174.787345,153.000000,6.220000,3.216000,1604456848000
Fix,gps,-41.247525,174.787297,152.000000,6.300000,3.216000,1604456849000
Fix,gps,-41.247568,174.787253,152.000000,6.070000,3.216000,1604456850000
Fix,gps,-41.247615,174.787213,151.000000,6.050000,3.216000,1604456851000
Fix,gps,-41.247665,174.787174,151.000000,6.420000,3.216000,1604456852000
Fix,gps,-41.247716,174.787129,152.000000,6.680000,3.216000,1604456853000
Fix,gps,-41.247769,174.787090,152.000000,6.720000,3.216000,1604456854000
Fix,gps,-41.247816,174.787054,151.000000,6.010000,3.216000,1604456855000
Fix,gps,-41.247861,174.787011,150.000000,6.300000,3.216000,1604456856000
Fix,gps,-41.247908,174.786977,150.000000,6.290000,3.216000,1604456857000
Fix,gps,-41.247969,174.786971,150.000000,6.590000,3.216000,1604456858000
Fix,gps,-41.248023,174.786983,150.000000,6.070000,3.216000,1604456859000
Fix,gps,-41.248080,174.786991,150.000000,6.260000,3.216000,1604456860000
Fix,gps,-41.248138,174.786986,151.000000,6.300000,3.216000,1604456861000
Fix,gps,-41.248198,174.786980,150.000000,6.460000,3.216000,1604456862000
Fix,gps,-41.248253,174.786978,152.000000,6.090000,3.216000,1604456863000
Fix,gps,-41.248300,174.786998,152.000000,5.750000,3.216000,1604456864000
Fix,gps,-41.248352,174.787029,151.000000,5.990000,3.216000,1604456865000
Fix,gps,-41.248373,174.787115,150.000000,5.900000,3.216000,1604456866000
Fix,gps,-41.248401,174.787182,151.000000,6.560000,3.216000,1604456867000
Fix,gps,-41.248438,174.787249,151.000000,6.270000,3.216000,1604456868000
Fix,gps,-41.248471,174.787305,151.000000,6.140000,3.216000,1604456869000
Fix,gps,-41.248496,174.787370,151.000000,5.700000,3.216000,1604456870000
Fix,gps,-41.248517,174.787430,151.000000,5.110000,3.216000,1604456871000
Fix,gps,-41.248559,174.787499,150.000000,5.900000,3.216000,1604456872000
Fix,gps,-41.248594,174.787558,150.000000,5.750000,4.288000,1604456873000
Fix,gps,-41.248639,174.787601,151.000000,5.490000,4.288000,1604456874000
Fix,gps,-41.248667,174.787647,152.000000,5.580000,4.288000,1604456875000
Fix,gps,-41.248705,174.787696,151.000000,5.780000,4.288000,1604456876000
Fix,gps,-41.248734,174.787754,152.000000,6.210000,4.288000,1604456877000
Fix,gps,-41.248781,174.787800,152.000000,5.740000,4.288000,1604456878000
Fix,gps,-41.248819,174.787847,151.000000,5.740000,3.216000,1604456879000
Fix,gps,-41.248867,174.787891,150.000000,5.730000,3.216000,1604456880000
Fix,gps,-41.248901,174.787934,149.000000,5.420000,3.216000,1604456881000
Fix,gps,-41.248947,174.787968,150.000000,5.500000,3.216000,1604456882000
Fix,gps,-41.248975,174.788030,150.000000,5.290000,3.216000,1604456883000
Fix,gps,-41.248989,174.788101,151.000000,5.890000,3.216000,1604456884000
Fix,gps,-41.248970,174.788171,152.000000,4.600000,3.216000,1604456885000
Fix,gps,-41.248964,174.788204,153.000000,4.020000,3.216000,1604456886000
Fix,gps,-41.248946,174.788239,155.000000,3.620000,3.216000,1604456887000
Fix,gps,-41.248935,174.788282,153.000000,4.180000,3.216000,1604456888000
Fix,gps,-41.248935,174.788328,152.000000,3.540000,3.216000,1604456889000
Fix,gps,-41.248916,174.788385,152.000000,4.270000,3.216000,1604456890000
Fix,gps,-41.248898,174.788437,152.000000,4.530000,3.216000,1604456891000
Fix,gps,-41.248894,174.788482,152.000000,4.070000,3.216000,1604456892000
Fix,gps,-41.248866,174.788539,151.000000,4.600000,3.216000,1604456893000
Fix,gps,-41.248846,174.788584,152.000000,4.610000,3.216000,1604456894000
Fix,gps,-41.248824,174.788627,151.000000,3.990000,3.216000,1604456895000
Fix,gps,-41.248804,174.788666,151.000000,3.890000,3.216000,1604456896000
Fix,gps,-41.248785,174.788702,151.000000,3.480000,3.216000,1604456897000
Fix,gps,-41.248756,174.788731,150.000000,4.460000,3.216000,1604456898000
Fix,gps,-41.248719,174.788755,151.000000,4.010000,4.288000,1604456899000
Fix,gps,-41.248687,174.788772,151.000000,3.360000,3.216000,1604456900000
Fix,gps,-41.248662,174.788789,152.000000,2.820000,3.216000,1604456901000
Fix,gps,-41.248640,174.788813,152.000000,3.410000,3.216000,1604456902000
Fix,gps,-41.248618,174.788839,153.000000,3.090000,3.216000,1604456903000
Fix,gps,-41.248590,174.788864,153.000000,4.060000,3.216000,1604456904000
Fix,gps,-41.248557,174.788883,152.000000,3.570000,3.216000,1604456905000
Fix,gps,-41.248521,174.788897,153.000000,3.770000,3.216000,1604456906000
Fix,gps,-41.248483,174.788915,153.000000,4.490000,3.216000,1604456907000
Fix,gps,-41.248446,174.788937,154.000000,4.030000,3.216000,1604456908000
Fix,gps,-41.248413,174.788971,155.000000,4.730000,3.216000,1604456909000
Fix,gps,-41.248361,174.789022,155.000000,5.430000,3.216000,1604456910000
Fix,gps,-41.248331,174.789072,156.000000,5.500000,3.216000,1604456911000
Fix,gps,-41.248287,174.789104,157.000000,5.430000,3.216000,1604456912000
Fix,gps,-41.248251,174.789146,157.000000,5.310000,3.216000,1604456913000
Fix,gps,-41.248207,174.789184,157.000000,5.730000,3.216000,1604456914000
Fix,gps,-41.248164,174.789240,155.000000,5.530000,3.216000,1604456915000
Fix,gps,-41.248124,174.789282,156.000000,5.650000,3.216000,1604456916000
Fix,gps,-41.248083,174.789313,155.000000,5.390000,3.216000,1604456917000
Fix,gps,-41.248046,174.789352,156.000000,5.270000,3.216000,1604456918000
Fix,gps,-41.248011,174.789391,157.000000,5.080000,3.216000,1604456919000
Fix,gps,-41.247985,174.789421,157.000000,3.810000,3.216000,1604456920000
Fix,gps,-41.247955,174.789447,157.000000,4.070000,3.216000,1604456921000
Fix,gps,-41.247928,174.789474,156.000000,3.540000,3.216000,1604456922000
Fix,gps,-41.247904,174.789498,155.000000,3.350000,3.216000,1604456923000
Fix,gps,-41.247872,174.789517,156.000000,3.590000,3.216000,1604456924000
Fix,gps,-41.247848,174.789536,155.000000,3.280000,3.216000,1604456925000
Fix,gps,-41.247829,174.789557,155.000000,2.740000,3.216000,1604456926000
Fix,gps,-41.247812,174.789589,154.000000,3.010000,3.216000,1604456927000
Fix,gps,-41.247792,174.789616,154.000000,3.040000,3.216000,1604456928000
Fix,gps,-41.247765,174.789651,155.000000,3.340000,3.216000,1604456929000
Fix,gps,-41.247741,174.789669,155.000000,2.940000,3.216000,1604456930000
Fix,gps,-41.247710,174.789673,154.000000,3.370000,3.216000,1604456931000
Fix,gps,-41.247677,174.789670,154.000000,3.540000,3.216000,1604456932000
Fix,gps,-41.247643,174.789665,154.000000,3.830000,3.216000,1604456933000
Fix,gps,-41.247608,174.789660,154.000000,3.720000,3.216000,1604456934000
Fix,gps,-41.247574,174.789653,155.000000,3.790000,3.216000,1604456935000
Fix,gps,-41.247543,174.789650,154.000000,3.230000,3.216000,1604456936000
Fix,gps,-41.247517,174.789650,155.000000,2.770000,3.216000,1604456937000
Fix,gps,-41.247489,174.789649,155.000000,3.230000,3.216000,1604456938000
Fix,gps,-41.247457,174.789646,155.000000,3.380000,3.216000,1604456939000
Fix,gps,-41.247427,174.789633,157.000000,3.380000,3.216000,1604456940000
Fix,gps,-41.247398,174.789615,158.000000,3.300000,3.216000,1604456941000
Fix,gps,-41.247372,174.789602,158.000000,2.880000,3.216000,1604456942000
Fix,gps,-41.247347,174.789596,159.000000,2.600000,3.216000,1604456943000
Fix,gps,-41.247321,174.789603,159.000000,3.080000,3.216000,1604456944000
Fix,gps,-41.247290,174.789619,159.000000,3.880000,3.216000,1604456945000
Fix,gps,-41.247257,174.789638,158.000000,3.630000,3.216000,1604456946000
Fix,gps,-41.247229,174.789650,158.000000,2.850000,3.216000,1604456947000
Fix,gps,-41.247200,174.789656,158.000000,3.450000,3.216000,1604456948000
Fix,gps,-41.247171,174.789661,159.000000,3.020000,3.216000,1604456949000
Fix,gps,-41.247143,174.789668,158.000000,3.260000,3.216000,1604456950000
Fix,gps,-41.247113,174.789679,158.000000,3.310000,3.216000,1604456951000
Fix,gps,-41.247085,174.789693,158.000000,3.100000,3.216000,1604456952000
Fix,gps,-41.247052,174.789708,160.000000,4.150000,3.216000,1604456953000
Fix,gps,-41.247020,174.789719,160.000000,3.300000,3.216000,1604456954000
Fix,gps,-41.246991,174.789723,160.000000,3.060000,3.216000,1604456955000
Fix,gps,-41.246964,174.789724,160.000000,3.070000,3.216000,1604456956000
Fix,gps,-41.246939,174.789723,161.000000,2.530000,3.216000,1604456957000
Fix,gps,-41.246915,174.789731,161.000000,3.120000,3.216000,1604456958000
Fix,gps,-41.246890,174.789746,160.000000,2.980000,3.216000,1604456959000
Fix,gps,-41.246865,174.789760,160.000000,3.010000,3.216000,1604456960000
Fix,gps,-41.246838,174.789772,159.000000,3.080000,3.216000,1604456961000
Fix,gps,-41.246805,174.789781,159.000000,3.940000,3.216000,1604456962000
Fix,gps,-41.246767,174.789788,158.000000,3.950000,3.216000,1604456963000
Fix,gps,-41.246731,174.789794,159.000000,3.720000,3.216000,1604456964000
Fix,gps,-41.246692,174.789801,160.000000,4.410000,3.216000,1604456965000
Fix,gps,-41.246651,174.789813,160.000000,4.400000,3.216000,1604456966000
Fix,gps,-41.246607,174.789825,159.000000,4.750000,3.216000,1604456967000
Fix,gps,-41.246564,174.789841,160.000000,4.510000,3.216000,1604456968000
Fix,gps,-41.246525,174.789858,160.000000,4.090000,3.216000,1604456969000
Fix,gps,-41.246489,174.789876,160.000000,4.000000,3.216000,1604456970000
Fix,gps,-41.246454,174.789895,159.000000,4.130000,3.216000,1604456971000
Fix,gps,-41.246414,174.789905,158.000000,4.510000,3.216000,1604456972000
Fix,gps,-41.246373,174.789908,158.000000,4.470000,3.216000,1604456973000
Fix,gps,-41.246330,174.789904,159.000000,4.830000,3.216000,1604456974000
Fix,gps,-41.246289,174.789901,159.000000,4.420000,3.216000,1604456975000
Fix,gps,-41.246249,174.789900,159.000000,4.580000,3.216000,1604456976000
Fix,gps,-41.246210,174.789901,160.000000,4.220000,3.216000,1604456977000
Fix,gps,-41.246174,174.789902,161.000000,4.050000,3.216000,1604456978000
Fix,gps,-41.246137,174.789900,161.000000,4.130000,3.216000,1604456979000
Fix,gps,-41.246100,174.789895,162.000000,4.020000,3.216000,1604456980000
Fix,gps,-41.246062,174.789888,162.000000,4.220000,3.216000,1604456981000
Fix,gps,-41.246025,174.789877,162.000000,3.890000,3.216000,1604456982000
Fix,gps,-41.245992,174.789863,162.000000,3.530000,3.216000,1604456983000
Fix,gps,-41.245961,174.789843,161.000000,3.530000,3.216000,1604456984000
Fix,gps,-41.245935,174.789816,162.000000,3.370000,3.216000,1604456985000
Fix,gps,-41.245910,174.789784,162.000000,3.540000,3.216000,1604456986000
Fix,gps,-41.245879,174.789756,161.000000,4.210000,3.216000,1604456987000
Fix,gps,-41.245843,174.789738,161.000000,4.220000,3.216000,1604456988000
Fix,gps,-41.245806,174.789741,160.000000,4.300000,3.216000,1604456989000
Fix,gps,-41.245770,174.789760,160.000000,4.410000,3.216000,1604456990000
Fix,gps,-41.245734,174.789793,160.000000,4.850000,3.216000,1604456991000
Fix,gps,-41.245701,174.789831,160.000000,4.360000,3.216000,1604456992000
Fix,gps,-41.245671,174.789866,159.000000,4.180000,3.216000,1604456993000
Fix,gps,-41.245642,174.789899,159.000000,4.070000,3.216000,1604456994000
Fix,gps,-41.245613,174.789932,158.000000,4.390000,3.216000,1604456995000
Fix,gps,-41.245584,174.789966,158.000000,4.250000,3.216000,1604456996000
Fix,gps,-41.245555,174.789998,156.000000,4.070000,3.216000,1604456997000
Fix,gps,-41.245524,174.790028,155.000000,4.200000,3.216000,1604456998000
Fix,gps,-41.245492,174.790057,155.000000,4.220000,3.216000,1604456999000
Fix,gps,-41.245462,174.790085,155.000000,3.820000,3.216000,1604457000000
Fix,gps,-41.245431,174.790108,155.000000,3.970000,3.216000,1604457001000
Fix,gps,-41.245400,174.790132,155.000000,4.190000,3.216000,1604457002000
Fix,gps,-41.245367,174.790155,155.000000,4.190000,3.216000,1604457003000
Fix,gps,-41.245334,174.790179,155.000000,4.340000,3.216000,1604457004000
Fix,gps,-41.245302,174.790207,155.000000,4.280000,3.216000,1604457005000
Fix,gps,-41.245273,174.790231,156.000000,3.650000,3.216000,1604457006000
Fix,gps,-41.245248,174.790253,157.000000,3.350000,3.216000,1604457007000
Fix,gps,-41.245223,174.790275,158.000000,3.440000,3.216000,1604457008000
Fix,gps,-41.245197,174.790294,158.000000,3.500000,3.216000,1604457009000
Fix,gps,-41.245172,174.790311,158.000000,3.100000,3.216000,1604457010000
Fix,gps,-41.245149,174.790324,158.000000,3.000000,3.216000,1604457011000
Fix,gps,-41.245126,174.790336,158.000000,2.800000,3.216000,1604457012000
Fix,gps,-41.245107,174.790349,159.000000,2.390000,3.216000,1604457013000
Fix,gps,-41.245091,174.790363,160.000000,2.240000,3.216000,1604457014000
Fix,gps,-41.245074,174.790381,160.000000,2.560000,3.216000,1604457015000
Fix,gps,-41.245056,174.790401,160.000000,2.620000,3.216000,1604457016000
Fix,gps,-41.245035,174.790419,161.000000,2.980000,3.216000,1604457017000
Fix,gps,-41.245012,174.790434,161.000000,2.590000,3.216000,1604457018000
Fix,gps,-41.244989,174.790449,162.000000,2.970000,3.216000,1604457019000
Fix,gps,-41.244965,174.790466,162.000000,2.870000,3.216000,1604457020000
Fix,gps,-41.244942,174.790484,164.000000,2.970000,3.216000,1604457021000
Fix,gps,-41.244918,174.790501,163.000000,2.830000,3.216000,1604457022000
Fix,gps,-41.244896,174.790517,162.000000,2.560000,3.216000,1604457023000
Fix,gps,-41.244875,174.790530,162.000000,2.450000,3.216000,1604457024000
Fix,gps,-41.244855,174.790544,162.000000,2.410000,3.216000,1604457025000
Fix,gps,-41.244834,174.790556,162.000000,2.670000,3.216000,1604457026000
Fix,gps,-41.244811,174.790567,162.000000,2.560000,3.216000,1604457027000
Fix,gps,-41.244788,174.790573,162.000000,2.540000,3.216000,1604457028000
Fix,gps,-41.244770,174.790572,163.000000,1.930000,3.216000,1604457029000
Fix,gps,-41.244752,174.790563,163.000000,2.360000,3.216000,1604457030000
Fix,gps,-41.244733,174.790539,163.000000,2.920000,3.216000,1604457031000
Fix,gps,-41.244722,174.790513,165.000000,2.030000,3.216000,1604457032000
Fix,gps,-41.244716,174.790486,164.000000,2.340000,3.216000,1604457033000
Fix,gps,-41.244714,174.790454,164.000000,2.330000,3.216000,1604457034000
Fix,gps,-41.244709,174.790411,162.000000,3.320000,3.216000,1604457035000
Fix,gps,-41.244699,174.790358,162.000000,4.390000,3.216000,1604457036000
Fix,gps,-41.244689,174.790314,163.000000,2.700000,3.216000,1604457037000
Fix,gps,-41.244679,174.790280,163.000000,3.000000,3.216000,1604457038000
Fix,gps,-41.244666,174.790249,164.000000,2.540000,3.216000,1604457039000
Fix,gps,-41.244652,174.790216,164.000000,3.170000,4.288000,1604457040000
Fix,gps,-41.244643,174.790179,162.000000,3.120000,3.216000,1604457041000
Fix,gps,-41.244635,174.790145,163.000000,2.580000,3.216000,1604457042000
Fix,gps,-41.244626,174.790112,163.000000,3.060000,4.288000,1604457043000
Fix,gps,-41.244613,174.790072,164.000000,3.630000,4.288000,1604457044000
Fix,gps,-41.244598,174.790034,165.000000,3.240000,3.216000,1604457045000
Fix,gps,-41.244582,174.790001,165.000000,3.070000,3.216000,1604457046000
Fix,gps,-41.244559,174.789971,165.000000,3.460000,3.216000,1604457047000
Fix,gps,-41.244535,174.789944,166.000000,3.110000,3.216000,1604457048000
Fix,gps,-41.244514,174.789913,167.000000,3.320000,3.216000,1604457049000
Fix,gps,-41.244498,174.789881,167.000000,2.730000,3.216000,1604457050000
Fix,gps,-41.244486,174.789849,167.000000,2.940000,3.216000,1604457051000
Fix,gps,-41.244472,174.789807,168.000000,4.080000,3.216000,1604457052000
Fix,gps,-41.244456,174.789761,169.000000,3.860000,3.216000,1604457053000
Fix,gps,-41.244440,174.789725,169.000000,3.160000,3.216000,1604457054000
Fix,gps,-41.244423,174.789688,169.000000,3.750000,3.216000,1604457055000
Fix,gps,-41.244403,174.789648,170.000000,3.780000,3.216000,1604457056000
Fix,gps,-41.244379,174.789601,171.000000,4.590000,3.216000,1604457057000
Fix,gps,-41.244354,174.789552,171.000000,4.040000,3.216000,1604457058000
Fix,gps,-41.244331,174.789511,172.000000,3.640000,3.216000,1604457059000
Fix,gps,-41.244311,174.789474,171.000000,3.250000,3.216000,1604457060000
Fix,gps,-41.244293,174.789438,171.000000,3.390000,3.216000,1604457061000
Fix,gps,-41.244276,174.789399,170.000000,3.350000,3.216000,1604457062000
Fix,gps,-41.244258,174.789361,170.000000,3.500000,3.216000,1604457063000
Fix,gps,-41.244239,174.789327,170.000000,3.030000,3.216000,1604457064000
Fix,gps,-41.244218,174.789302,171.000000,2.630000,3.216000,1604457065000
Fix,gps,-41.244198,174.789274,172.000000,3.290000,3.216000,1604457066000
Fix,gps,-41.244178,174.789241,173.000000,3.340000,3.216000,1604457067000
Fix,gps,-41.244159,174.789203,173.000000,3.710000,3.216000,1604457068000
Fix,gps,-41.244143,174.789154,173.000000,4.500000,3.216000,1604457069000
Fix,gps,-41.244134,174.789114,173.000000,2.520000,3.216000,1604457070000
Fix,gps,-41.244133,174.789079,174.000000,3.000000,3.216000,1604457071000
Fix,gps,-41.244125,174.789040,174.000000,3.660000,3.216000,1604457072000
Fix,gps,-41.244110,174.788993,175.000000,4.490000,3.216000,1604457073000
Fix,gps,-41.244094,174.788945,174.000000,4.110000,3.216000,1604457074000
Fix,gps,-41.244077,174.788906,175.000000,3.590000,3.216000,1604457075000
Fix,gps,-41.244059,174.788871,175.000000,3.320000,3.216000,1604457076000
Fix,gps,-41.244040,174.788844,175.000000,2.910000,3.216000,1604457077000
Fix,gps,-41.244018,174.788813,176.000000,3.880000,3.216000,1604457078000
Fix,gps,-41.243996,174.788774,176.000000,3.930000,3.216000,1604457079000
Fix,gps,-41.243979,174.788735,175.000000,3.420000,3.216000,1604457080000
Fix,gps,-41.243963,174.788698,176.000000,3.670000,3.216000,1604457081000
Fix,gps,-41.243946,174.788657,177.000000,3.980000,3.216000,1604457082000
Fix,gps,-41.243926,174.788619,176.000000,3.560000,3.216000,1604457083000
Fix,gps,-41.243909,174.788585,177.000000,3.270000,3.216000,1604457084000
Fix,gps,-41.243893,174.788547,177.000000,3.730000,3.216000,1604457085000
Fix,gps,-41.243879,174.788504,177.000000,4.070000,3.216000,1604457086000
Fix,gps,-41.243864,174.788462,177.000000,3.680000,3.216000,1604457087000
Fix,gps,-41.243849,174.788424,177.000000,3.600000,3.216000,1604457088000
Fix,gps,-41.243834,174.788390,177.000000,3.130000,3.216000,1604457089000
Fix,gps,-41.243817,174.788357,177.000000,3.420000,3.216000,1604457090000
Fix,gps,-41.243800,174.788322,178.000000,3.440000,3.216000,1604457091000
Fix,gps,-41.243782,174.788291,178.000000,3.050000,3.216000,1604457092000
Fix,gps,-41.243765,174.788260,179.000000,3.090000,3.216000,1604457093000
Fix,gps,-41.243746,174.788227,179.000000,3.510000,3.216000,1604457094000
Fix,gps,-41.243726,174.788189,179.000000,3.760000,3.216000,1604457095000
Fix,gps,-41.243704,174.788151,179.000000,3.900000,3.216000,1604457096000
Fix,gps,-41.243681,174.788114,179.000000,3.840000,3.216000,1604457097000
Fix,gps,-41.243660,174.788085,179.000000,2.970000,3.216000,1604457098000
Fix,gps,-41.243644,174.788062,179.000000,2.510000,3.216000,1604457099000
Fix,gps,-41.243628,174.788030,181.000000,3.520000,3.216000,1604457100000
Fix,gps,-41.243611,174.787989,180.000000,3.610000,3.216000,1604457101000
Fix,gps,-41.243596,174.787942,181.000000,3.990000,3.216000,1604457102000
Fix,gps,-41.243576,174.787899,180.000000,3.770000,3.216000,1604457103000
Fix,gps,-41.243556,174.787859,181.000000,3.860000,3.216000,1604457104000
Fix,gps,-41.243532,174.787821,181.000000,4.010000,3.216000,1604457105000
Fix,gps,-41.243511,174.787786,182.000000,3.560000,3.216000,1604457106000
Fix,gps,-41.243492,174.787751,182.000000,3.580000,4.288000,1604457107000
Fix,gps,-41.243473,174.787717,182.000000,3.370000,4.288000,1604457108000
Fix,gps,-41.243465,174.787680,184.000000,3.680000,3.216000,1604457109000
Fix,gps,-41.243460,174.787638,184.000000,3.610000,3.216000,1604457110000
Fix,gps,-41.243450,174.787594,183.000000,3.940000,3.216000,1604457111000
Fix,gps,-41.243436,174.787554,183.000000,3.430000,3.216000,1604457112000
Fix,gps,-41.243418,174.787521,185.000000,3.470000,3.216000,1604457113000
Fix,gps,-41.243395,174.787490,185.000000,3.320000,3.216000,1604457114000
Fix,gps,-41.243372,174.787458,186.000000,3.900000,3.216000,1604457115000
Fix,gps,-41.243350,174.787422,186.000000,3.750000,3.216000,1604457116000
Fix,gps,-41.243330,174.787386,186.000000,3.550000,3.216000,1604457117000
Fix,gps,-41.243312,174.787350,186.000000,3.540000,3.216000,1604457118000
Fix,gps,-41.243293,174.787308,186.000000,4.380000,3.216000,1604457119000
Fix,gps,-41.243274,174.787263,186.000000,4.030000,3.216000,1604457120000
Fix,gps,-41.243254,174.787220,186.000000,4.140000,3.216000,1604457121000
Fix,gps,-41.243234,174.787182,186.000000,3.820000,3.216000,1604457122000
Fix,gps,-41.243213,174.787148,186.000000,3.560000,3.216000,1604457123000
Fix,gps,-41.243196,174.787117,187.000000,3.060000,3.216000,1604457124000
Fix,gps,-41.243178,174.787093,187.000000,2.890000,3.216000,1604457125000
Fix,gps,-41.243158,174.787069,187.000000,3.290000,3.216000,1604457126000
Fix,gps,-41.243140,174.787046,187.000000,2.520000,3.216000,1604457127000
Fix,gps,-41.243126,174.787026,188.000000,2.250000,3.216000,1604457128000
Fix,gps,-41.243114,174.787010,188.000000,1.810000,3.216000,1604457129000
Fix,gps,-41.243101,174.786997,188.000000,2.010000,3.216000,1604457130000
Fix,gps,-41.243086,174.786986,189.000000,1.960000,3.216000,1604457131000
Fix,gps,-41.243071,174.786976,189.000000,1.860000,3.216000,1604457132000
Fix,gps,-41.243055,174.786968,190.000000,2.050000,3.216000,1604457133000
Fix,gps,-41.243038,174.786959,190.000000,2.100000,3.216000,1604457134000
Fix,gps,-41.243021,174.786950,191.000000,2.080000,3.216000,1604457135000
Fix,gps,-41.243002,174.786941,191.000000,2.280000,3.216000,1604457136000
Fix,gps,-41.242983,174.786939,191.000000,2.190000,3.216000,1604457137000
Fix,gps,-41.242964,174.786942,191.000000,1.990000,3.216000,1604457138000
Fix,gps,-41.242945,174.786951,190.000000,2.220000,3.216000,1604457139000
Fix,gps,-41.242924,174.786958,191.000000,2.320000,3.216000,1604457140000
Fix,gps,-41.242903,174.786965,191.000000,2.260000,3.216000,1604457141000
Fix,gps,-41.242882,174.786973,192.000000,2.270000,3.216000,1604457142000
Fix,gps,-41.242863,174.786981,192.000000,2.100000,3.216000,1604457143000
Fix,gps,-41.242843,174.786988,192.000000,2.300000,3.216000,1604457144000
Fix,gps,-41.242819,174.786993,192.000000,2.580000,3.216000,1604457145000
Fix,gps,-41.242797,174.787002,192.000000,2.250000,3.216000,1604457146000
Fix,gps,-41.242779,174.787010,193.000000,1.860000,3.216000,1604457147000
Fix,gps,-41.242764,174.787014,193.000000,1.600000,3.216000,1604457148000
Fix,gps,-41.242753,174.787015,194.000000,1.150000,3.216000,1604457149000
Fix,gps,-41.242738,174.787019,194.000000,1.900000,3.216000,1604457150000
Fix,gps,-41.242719,174.787026,194.000000,2.040000,3.216000,1604457151000
Fix,gps,-41.242709,174.787033,194.000000,0.760000,3.216000,1604457152000
Fix,gps,-41.242705,174.787035,195.000000,0.540000,3.216000,1604457153000
Fix,gps,-41.242709,174.787036,196.000000,0.000000,3.216000,1604457154000
